{
"type": "FeatureCollection",
"name": "Schools",
"crs": { "type": "name", "properties": { "name": "urn:ogc:def:crs:OGC:1.3:CRS84" } },
"features": [
{ "type": "Feature", "properties": { "OBJECTID": 1, "NAME": "HICKORY HILLS MIDDLE", "ADDRESS": "4650 E DIVISION ST", "QUADRANT": null, "SNOWRT": "N" }, "geometry": { "type": "Point", "coordinates": [ -93.195860869215153, 37.222210276373225 ] } },
{ "type": "Feature", "properties": { "OBJECTID": 2, "NAME": "HICKORY HILLS ELEMENTARY", "ADDRESS": "4650 E DIVISION ST", "QUADRANT": null, "SNOWRT": "N" }, "geometry": { "type": "Point", "coordinates": [ -93.195859195398626, 37.222259487549394 ] } },
{ "type": "Feature", "properties": { "OBJECTID": 3, "NAME": "PHELPS CENTER FOR THE GIFTED", "ADDRESS": "934 S KIMBROUGH AVE", "QUADRANT": "4", "SNOWRT": "N" }, "geometry": { "type": "Point", "coordinates": [ -93.286636426085437, 37.197647919945659 ] } },
{ "type": "Feature", "properties": { "OBJECTID": 4, "NAME": "SHADY DELL EARLY CHILDHOOD CEN", "ADDRESS": "2757 E DIVISION ST", "QUADRANT": "1", "SNOWRT": "Y" }, "geometry": { "type": "Point", "coordinates": [ -93.239143470430406, 37.225208682503862 ] } },
{ "type": "Feature", "properties": { "OBJECTID": 5, "NAME": "WILSONS CREEK 5TH & 6TH", "ADDRESS": "4035 W WEAVER RD", "QUADRANT": null, "SNOWRT": "N" }, "geometry": { "type": "Point", "coordinates": [ -93.364208202943431, 37.126436441348865 ] } },
{ "type": "Feature", "properties": { "OBJECTID": 6, "NAME": "PLEASANT VIEW MIDDLE", "ADDRESS": "2210 E STATE HIGHWAY AA", "QUADRANT": null, "SNOWRT": "Y" }, "geometry": { "type": "Point", "coordinates": [ -93.24975071104484, 37.295818165181934 ] } },
{ "type": "Feature", "properties": { "OBJECTID": 7, "NAME": "PIPKIN MIDDLE", "ADDRESS": "1215 N BOONVILLE AVE", "QUADRANT": "4", "SNOWRT": "Y" }, "geometry": { "type": "Point", "coordinates": [ -93.292681370522558, 37.221679420005685 ] } },
{ "type": "Feature", "properties": { "OBJECTID": 8, "NAME": "STUDY ALTERNATIVE CENTER", "ADDRESS": "2343 W OLIVE ST", "QUADRANT": "3", "SNOWRT": "Y" }, "geometry": { "type": "Point", "coordinates": [ -93.324480878458814, 37.210339086634335 ] } },
{ "type": "Feature", "properties": { "OBJECTID": 9, "NAME": "JARRETT MIDDLE", "ADDRESS": "840 S JEFFERSON AVE", "QUADRANT": "4", "SNOWRT": "Y" }, "geometry": { "type": "Point", "coordinates": [ -93.289622075433684, 37.199031979355077 ] } },
{ "type": "Feature", "properties": { "OBJECTID": 10, "NAME": "PERSHING ELMENTARY\/MIDDLE", "ADDRESS": "2120 S VENTURA AVE", "QUADRANT": "6", "SNOWRT": "N" }, "geometry": { "type": "Point", "coordinates": [ -93.24287018476754, 37.174875220084395 ] } },
{ "type": "Feature", "properties": { "OBJECTID": 11, "NAME": "CARVER MIDDLE", "ADDRESS": "3325 W BATTLEFIELD RD", "QUADRANT": "7", "SNOWRT": "Y" }, "geometry": { "type": "Point", "coordinates": [ -93.346588797116084, 37.163157555660426 ] } },
{ "type": "Feature", "properties": { "OBJECTID": 12, "NAME": "CHEROKEE MIDDLE", "ADDRESS": "420 E PLAINVIEW RD", "QUADRANT": null, "SNOWRT": "N" }, "geometry": { "type": "Point", "coordinates": [ -93.29112950430266, 37.11705450873437 ] } },
{ "type": "Feature", "properties": { "OBJECTID": 13, "NAME": "PLEASANT VIEW ELEMENTARY", "ADDRESS": "2210 E STATE HIGHWAY AA", "QUADRANT": null, "SNOWRT": "Y" }, "geometry": { "type": "Point", "coordinates": [ -93.249672824571505, 37.296018050819754 ] } },
{ "type": "Feature", "properties": { "OBJECTID": 14, "NAME": "TRUMAN ELEMENTARY ", "ADDRESS": "3850 N FARM ROAD 159", "QUADRANT": null, "SNOWRT": "Y" }, "geometry": { "type": "Point", "coordinates": [ -93.280476423148187, 37.267226097968774 ] } },
{ "type": "Feature", "properties": { "OBJECTID": 15, "NAME": "WILLIAMS ELEMENTARY", "ADDRESS": "2205 W KEARNEY ST", "QUADRANT": "2", "SNOWRT": "Y" }, "geometry": { "type": "Point", "coordinates": [ -93.320806241395303, 37.241636092091795 ] } },
{ "type": "Feature", "properties": { "OBJECTID": 16, "NAME": "BOWERMAN ELEMENTARY", "ADDRESS": "2148 N DOUGLAS AVE", "QUADRANT": "2", "SNOWRT": "Y" }, "geometry": { "type": "Point", "coordinates": [ -93.298793401248787, 37.236654624254136 ] } },
{ "type": "Feature", "properties": { "OBJECTID": 17, "NAME": "WATKINS ELEMENTARY", "ADDRESS": "732 W TALMAGE ST", "QUADRANT": "2", "SNOWRT": "Y" }, "geometry": { "type": "Point", "coordinates": [ -93.299051208975797, 37.244101358293854 ] } },
{ "type": "Feature", "properties": { "OBJECTID": 18, "NAME": "FREMONT ELEMENTARY", "ADDRESS": "2814 N FREMONT AVE", "QUADRANT": "1", "SNOWRT": "Y" }, "geometry": { "type": "Point", "coordinates": [ -93.269220605899989, 37.247947826852624 ] } },
{ "type": "Feature", "properties": { "OBJECTID": 19, "NAME": "ROBBERSON ELEMENTARY", "ADDRESS": "1100 E KEARNEY ST", "QUADRANT": "2", "SNOWRT": "Y" }, "geometry": { "type": "Point", "coordinates": [ -93.276541235391278, 37.240313221195905 ] } },
{ "type": "Feature", "properties": { "OBJECTID": 20, "NAME": "BISSETT ELEMENTARY", "ADDRESS": "3014 W CALHOUN ST", "QUADRANT": "3", "SNOWRT": "Y" }, "geometry": { "type": "Point", "coordinates": [ -93.337356786080051, 37.222675823938715 ] } },
{ "type": "Feature", "properties": { "OBJECTID": 21, "NAME": "WESTPORT K-8", "ADDRESS": "415 S GOLDEN AVE", "QUADRANT": "3", "SNOWRT": "Y" }, "geometry": { "type": "Point", "coordinates": [ -93.339618210898564, 37.207586557777127 ] } },
{ "type": "Feature", "properties": { "OBJECTID": 22, "NAME": "YORK ELEMENTARY", "ADDRESS": "2100 W NICHOLS ST", "QUADRANT": "3", "SNOWRT": "Y" }, "geometry": { "type": "Point", "coordinates": [ -93.31953437261906, 37.218810494767929 ] } },
{ "type": "Feature", "properties": { "OBJECTID": 23, "NAME": "WEAVER ELEMENTARY", "ADDRESS": "1461 N DOUGLAS AVE", "QUADRANT": "3", "SNOWRT": "Y" }, "geometry": { "type": "Point", "coordinates": [ -93.299741744585148, 37.225690645887532 ] } },
{ "type": "Feature", "properties": { "OBJECTID": 24, "NAME": "BOYD ELEMENTARY", "ADDRESS": "1409 N WASHINGTON AVE", "QUADRANT": "4", "SNOWRT": "Y" }, "geometry": { "type": "Point", "coordinates": [ -93.285947466702524, 37.224182154187801 ] } },
{ "type": "Feature", "properties": { "OBJECTID": 25, "NAME": "WELLER ELEMENTARY", "ADDRESS": "1630 N WELLER AVE", "QUADRANT": "1", "SNOWRT": "Y" }, "geometry": { "type": "Point", "coordinates": [ -93.267777899893119, 37.228079176662234 ] } },
{ "type": "Feature", "properties": { "OBJECTID": 26, "NAME": "CAMPBELL ELEMENTARY", "ADDRESS": "506 S GRANT AVE", "QUADRANT": "4", "SNOWRT": "Y" }, "geometry": { "type": "Point", "coordinates": [ -93.29848443243101, 37.20489978056866 ] } },
{ "type": "Feature", "properties": { "OBJECTID": 27, "NAME": "MCGREGOR ELEMENTARY", "ADDRESS": "1221 W MADISON ST", "QUADRANT": "3", "SNOWRT": "Y" }, "geometry": { "type": "Point", "coordinates": [ -93.307459355305028, 37.200879761897632 ] } },
{ "type": "Feature", "properties": { "OBJECTID": 28, "NAME": "BINGHAM ELEMENTARY", "ADDRESS": "2126 E CHERRY ST", "QUADRANT": "5", "SNOWRT": "Y" }, "geometry": { "type": "Point", "coordinates": [ -93.254111749206615, 37.202953813816364 ] } },
{ "type": "Feature", "properties": { "OBJECTID": 29, "NAME": "ROUNTREE ELEMENTARY", "ADDRESS": "1333 E GRAND ST", "QUADRANT": "5", "SNOWRT": "Y" }, "geometry": { "type": "Point", "coordinates": [ -93.27260986114581, 37.196711098931274 ] } },
{ "type": "Feature", "properties": { "OBJECTID": 30, "NAME": "PORTLAND ELEMENTARY", "ADDRESS": "906 W PORTLAND ST", "QUADRANT": "7", "SNOWRT": "Y" }, "geometry": { "type": "Point", "coordinates": [ -93.302268062925819, 37.185559872578551 ] } },
{ "type": "Feature", "properties": { "OBJECTID": 31, "NAME": "DELAWARE ELEMENTARY", "ADDRESS": "1505 S DELAWARE AVE", "QUADRANT": "5", "SNOWRT": "Y" }, "geometry": { "type": "Point", "coordinates": [ -93.267573804298777, 37.18678394932855 ] } },
{ "type": "Feature", "properties": { "OBJECTID": 32, "NAME": "TWAIN ELEMENTARY", "ADDRESS": "2352 S WEAVER AVE", "QUADRANT": "7", "SNOWRT": "Y" }, "geometry": { "type": "Point", "coordinates": [ -93.305498173868898, 37.171968942784403 ] } },
{ "type": "Feature", "properties": { "OBJECTID": 33, "NAME": "SUNSHINE ELEMENTARY", "ADDRESS": "421 E SUNSHINE ST", "QUADRANT": "7", "SNOWRT": "Y" }, "geometry": { "type": "Point", "coordinates": [ -93.289811788631738, 37.182590611758577 ] } },
{ "type": "Feature", "properties": { "OBJECTID": 34, "NAME": "JEFFRIES ELEMENTARY", "ADDRESS": "4051 S SCENIC AVE", "QUADRANT": "7", "SNOWRT": "Y" }, "geometry": { "type": "Point", "coordinates": [ -93.334218876703957, 37.140671531722887 ] } },
{ "type": "Feature", "properties": { "OBJECTID": 35, "NAME": "PITTMAN ELEMENTARY", "ADDRESS": "2934 E BENNETT ST", "QUADRANT": "5", "SNOWRT": "Y" }, "geometry": { "type": "Point", "coordinates": [ -93.235694465791326, 37.187476037798028 ] } },
{ "type": "Feature", "properties": { "OBJECTID": 36, "NAME": "HOLLAND ELEMENTARY", "ADDRESS": "2403 S HOLLAND AVE", "QUADRANT": "7", "SNOWRT": "Y" }, "geometry": { "type": "Point", "coordinates": [ -93.287290702356685, 37.171136935832514 ] } },
{ "type": "Feature", "properties": { "OBJECTID": 37, "NAME": "MCBRIDE ELEMENTARY", "ADDRESS": "5005 S FARM ROAD 135", "QUADRANT": null, "SNOWRT": "N" }, "geometry": { "type": "Point", "coordinates": [ -93.343241025187709, 37.122236362546829 ] } },
{ "type": "Feature", "properties": { "OBJECTID": 38, "NAME": "COWDEN ELEMENTARY", "ADDRESS": "2927 S KIMBROUGH AVE", "QUADRANT": "7", "SNOWRT": "Y" }, "geometry": { "type": "Point", "coordinates": [ -93.286664912048792, 37.161555138617587 ] } },
{ "type": "Feature", "properties": { "OBJECTID": 39, "NAME": "FIELD ELEMENTARY", "ADDRESS": "2120 E BARATARIA ST", "QUADRANT": "6", "SNOWRT": "Y" }, "geometry": { "type": "Point", "coordinates": [ -93.256001501292999, 37.162832809375175 ] } },
{ "type": "Feature", "properties": { "OBJECTID": 40, "NAME": "GRAY ELEMENTARY", "ADDRESS": "2102 W PLAINVIEW RD", "QUADRANT": null, "SNOWRT": "N" }, "geometry": { "type": "Point", "coordinates": [ -93.321791357591536, 37.117657069557424 ] } },
{ "type": "Feature", "properties": { "OBJECTID": 41, "NAME": "DISNEY ELEMENTARY", "ADDRESS": "4100 S FREMONT AVE", "QUADRANT": "6", "SNOWRT": "Y" }, "geometry": { "type": "Point", "coordinates": [ -93.271411473274682, 37.139796141749009 ] } },
{ "type": "Feature", "properties": { "OBJECTID": 42, "NAME": "MANN ELEMENTARY", "ADDRESS": "3745 S BROADWAY AVE", "QUADRANT": "7", "SNOWRT": "Y" }, "geometry": { "type": "Point", "coordinates": [ -93.305243786791223, 37.145921158600665 ] } },
{ "type": "Feature", "properties": { "OBJECTID": 43, "NAME": "PERSHING ELMENTARY\/MIDDLE", "ADDRESS": "2120 S VENTURA AVE", "QUADRANT": "6", "SNOWRT": "Y" }, "geometry": { "type": "Point", "coordinates": [ -93.242501226852497, 37.174403240182215 ] } },
{ "type": "Feature", "properties": { "OBJECTID": 44, "NAME": "WILDER ELEMENTARY", "ADDRESS": "2526 S HILLSBORO AVE", "QUADRANT": "6", "SNOWRT": "Y" }, "geometry": { "type": "Point", "coordinates": [ -93.230404752235771, 37.166715356941317 ] } },
{ "type": "Feature", "properties": { "OBJECTID": 45, "NAME": "SEQUIOTA ELEMENTARY", "ADDRESS": "3414 S MENTOR AVE", "QUADRANT": "6", "SNOWRT": "Y" }, "geometry": { "type": "Point", "coordinates": [ -93.230422024018125, 37.150373917723897 ] } },
{ "type": "Feature", "properties": { "OBJECTID": 46, "NAME": "HILLCREST HIGH", "ADDRESS": "3319 N GRANT AVE", "QUADRANT": "2", "SNOWRT": "Y" }, "geometry": { "type": "Point", "coordinates": [ -93.298462863294702, 37.257436326337213 ] } },
{ "type": "Feature", "properties": { "OBJECTID": 47, "NAME": "CENTRAL HIGH", "ADDRESS": "423 E CENTRAL ST", "QUADRANT": "4", "SNOWRT": "Y" }, "geometry": { "type": "Point", "coordinates": [ -93.288476401736375, 37.217683285785 ] } },
{ "type": "Feature", "properties": { "OBJECTID": 48, "NAME": "PARKVIEW HIGH", "ADDRESS": "516 W MEADOWMERE ST", "QUADRANT": "7", "SNOWRT": "Y" }, "geometry": { "type": "Point", "coordinates": [ -93.296793561858109, 37.189654697964478 ] } },
{ "type": "Feature", "properties": { "OBJECTID": 49, "NAME": "GLENDALE HIGH", "ADDRESS": "2727 S INGRAM MILL RD", "QUADRANT": "6", "SNOWRT": "Y" }, "geometry": { "type": "Point", "coordinates": [ -93.227534675512132, 37.163063595448115 ] } },
{ "type": "Feature", "properties": { "OBJECTID": 50, "NAME": "KICKAPOO HIGH", "ADDRESS": "3710 S JEFFERSON AVE", "QUADRANT": "7", "SNOWRT": "Y" }, "geometry": { "type": "Point", "coordinates": [ -93.290493569237441, 37.146575375359305 ] } },
{ "type": "Feature", "properties": { "OBJECTID": 51, "NAME": "HARRISON ELEMENTARY", "ADDRESS": "3055 W KILDEE LN", "QUADRANT": null, "SNOWRT": "N" }, "geometry": { "type": "Point", "coordinates": [ -93.340477658956601, 37.128174878646483 ] } },
{ "type": "Feature", "properties": { "OBJECTID": 52, "NAME": "SHERWOOD ELEMENTARY", "ADDRESS": "2524 S GOLDEN AVE", "QUADRANT": "7", "SNOWRT": "Y" }, "geometry": { "type": "Point", "coordinates": [ -93.33882025789832, 37.16924614382836 ] } },
{ "type": "Feature", "properties": { "OBJECTID": 53, "NAME": "SHINING STARS EARLY CHILDHOOD", "ADDRESS": "2525 W COLLEGE RD", "QUADRANT": "3", "SNOWRT": "Y" }, "geometry": { "type": "Point", "coordinates": [ -93.326845632192587, 37.209651033498567 ] } },
{ "type": "Feature", "properties": { "OBJECTID": 54, "NAME": "REED ACADEMY (MIDDLE)", "ADDRESS": "2000 N LYON AVE", "QUADRANT": "2", "SNOWRT": "Y" }, "geometry": { "type": "Point", "coordinates": [ -93.294546804503909, 37.233848819743201 ] } }
]
}
